[{"city":"Chiriguan\u00e1","lat":9.3617,"lng":-73.6019,"admin_name":"Cesar","government_assistance":61.3636363636,"cari_insecurity":40.9090909091,"dataset_city_name":"ariguani"},{"city":"Barrancabermeja","lat":7.0675,"lng":-73.8472,"admin_name":"Santander","government_assistance":60.0,"cari_insecurity":37.7777777778,"dataset_city_name":"barrancabermeja"},{"city":"C\u00f3mbita","lat":5.6339,"lng":-73.3231,"admin_name":"Boyac\u00e1","government_assistance":63.0434782609,"cari_insecurity":34.7826086957,"dataset_city_name":"combita"},{"city":"C\u00f3rdoba","lat":0.8533,"lng":-77.5178,"admin_name":"Nari\u00f1o","government_assistance":65.0,"cari_insecurity":45.0,"dataset_city_name":"cordoba"},{"city":"C\u00f3rdoba","lat":9.5,"lng":-74.9167,"admin_name":"Bol\u00edvar","government_assistance":65.0,"cari_insecurity":45.0,"dataset_city_name":"cordoba"},{"city":"C\u00f3rdoba","lat":4.3911,"lng":-75.6878,"admin_name":"Quind\u00edo","government_assistance":65.0,"cari_insecurity":45.0,"dataset_city_name":"cordoba"},{"city":"Cumaribo","lat":4.4461,"lng":-69.7956,"admin_name":"Vichada","government_assistance":39.5348837209,"cari_insecurity":34.8837209302,"dataset_city_name":"cumaribo"},{"city":"Mit\u00fa","lat":1.2503,"lng":-70.235,"admin_name":"Vaup\u00e9s","government_assistance":54.2857142857,"cari_insecurity":40.0,"dataset_city_name":"mitu"},{"city":"Mocoa","lat":1.1492,"lng":-76.6464,"admin_name":"Putumayo","government_assistance":64.0776699029,"cari_insecurity":37.8640776699,"dataset_city_name":"mocoa"},{"city":"Nunch\u00eda","lat":5.6358,"lng":-72.195,"admin_name":"Casanare","government_assistance":65.0,"cari_insecurity":35.0,"dataset_city_name":"nunchia"},{"city":"Pitalito","lat":1.8539,"lng":-76.0514,"admin_name":"Huila","government_assistance":60.0,"cari_insecurity":35.0,"dataset_city_name":"pitalito"},{"city":"Quibd\u00f3","lat":5.6923,"lng":-76.6582,"admin_name":"Choc\u00f3","government_assistance":61.0,"cari_insecurity":46.0,"dataset_city_name":"quibdo"},{"city":"Sabanagrande","lat":10.7903,"lng":-74.7556,"admin_name":"Atl\u00e1ntico","government_assistance":64.2857142857,"cari_insecurity":35.7142857143,"dataset_city_name":"sabanagrande"},{"city":"Saravena","lat":6.9547,"lng":-71.8767,"admin_name":"Arauca","government_assistance":64.1025641026,"cari_insecurity":66.6666666667,"dataset_city_name":"saravena"},{"city":"Tame","lat":6.4583,"lng":-71.7447,"admin_name":"Arauca","government_assistance":64.1025641026,"cari_insecurity":52.5,"dataset_city_name":"tame"},{"city":"Valledupar","lat":10.4603,"lng":-73.2597,"admin_name":"Cesar","government_assistance":57.7922077922,"cari_insecurity":50.9677419355,"dataset_city_name":"valledupar"}]