[{"city":"\u00datica","lat":5.1886,"lng":-74.4811,"admin_name":"Cundinamarca","government_assistance":85.7142857143,"cari_insecurity":42.8571428571,"dataset_city_name":"8558"},{"city":"\u00c1brego","lat":8.0806,"lng":-73.2205,"admin_name":"Norte de Santander","government_assistance":80.0,"cari_insecurity":55.0,"dataset_city_name":"abrego"},{"city":"Aldana","lat":0.8822,"lng":-77.7006,"admin_name":"Nari\u00f1o","government_assistance":70.3703703704,"cari_insecurity":55.5555555556,"dataset_city_name":"aldana"},{"city":"Arauca","lat":7.0903,"lng":-70.7617,"admin_name":"Arauca","government_assistance":75.2,"cari_insecurity":63.2,"dataset_city_name":"arauca"},{"city":"Bol\u00edvar","lat":1.8399,"lng":-76.9689,"admin_name":"Cauca","government_assistance":79.0697674419,"cari_insecurity":39.5348837209,"dataset_city_name":"bolivar"},{"city":"Bol\u00edvar","lat":4.3387,"lng":-76.1834,"admin_name":"Valle del Cauca","government_assistance":79.0697674419,"cari_insecurity":39.5348837209,"dataset_city_name":"bolivar"},{"city":"Bol\u00edvar","lat":5.9893,"lng":-73.7706,"admin_name":"Santander","government_assistance":79.0697674419,"cari_insecurity":39.5348837209,"dataset_city_name":"bolivar"},{"city":"Bosconia","lat":9.9761,"lng":-73.8903,"admin_name":"Cesar","government_assistance":86.9565217391,"cari_insecurity":58.6956521739,"dataset_city_name":"bosconia"},{"city":"Candelaria","lat":10.4592,"lng":-74.8806,"admin_name":"Atl\u00e1ntico","government_assistance":93.3333333333,"cari_insecurity":56.6666666667,"dataset_city_name":"candelaria"},{"city":"Candelaria","lat":3.4067,"lng":-76.3482,"admin_name":"Valle del Cauca","government_assistance":93.3333333333,"cari_insecurity":56.6666666667,"dataset_city_name":"candelaria"},{"city":"Chin\u00fa","lat":9.1097,"lng":-75.3981,"admin_name":"C\u00f3rdoba","government_assistance":87.037037037,"cari_insecurity":72.2222222222,"dataset_city_name":"chinu"},{"city":"Colos\u00f3","lat":9.4942,"lng":-75.3525,"admin_name":"Sucre","government_assistance":100.0,"cari_insecurity":76.9230769231,"dataset_city_name":"coloso"},{"city":"Hato Corozal","lat":6.1547,"lng":-71.7653,"admin_name":"Casanare","government_assistance":93.3333333333,"cari_insecurity":62.2222222222,"dataset_city_name":"corozal"},{"city":"Dibulla","lat":11.2725,"lng":-73.3089,"admin_name":"La Guajira","government_assistance":89.1891891892,"cari_insecurity":43.9024390244,"dataset_city_name":"dibulla"},{"city":"Distracci\u00f3n","lat":10.8978,"lng":-72.8867,"admin_name":"La Guajira","government_assistance":90.0,"cari_insecurity":78.2608695652,"dataset_city_name":"distraccion"},{"city":"Florencia","lat":1.6142,"lng":-75.6117,"admin_name":"Caquet\u00e1","government_assistance":67.8571428571,"cari_insecurity":38.3928571429,"dataset_city_name":"florencia"},{"city":"Florencia","lat":1.6822,"lng":-77.0722,"admin_name":"Cauca","government_assistance":67.8571428571,"cari_insecurity":38.3928571429,"dataset_city_name":"florencia"},{"city":"Fonseca","lat":10.8858,"lng":-72.8481,"admin_name":"La Guajira","government_assistance":85.7142857143,"cari_insecurity":57.4468085106,"dataset_city_name":"fonseca"},{"city":"Fundaci\u00f3n","lat":10.5172,"lng":-74.1922,"admin_name":"Magdalena","government_assistance":83.6734693878,"cari_insecurity":46.9387755102,"dataset_city_name":"fundacion"},{"city":"Istmina","lat":5.1633,"lng":-76.6867,"admin_name":"Choc\u00f3","government_assistance":86.4864864865,"cari_insecurity":45.9459459459,"dataset_city_name":"istmina"},{"city":"Malambo","lat":10.8595,"lng":-74.7739,"admin_name":"Atl\u00e1ntico","government_assistance":76.7441860465,"cari_insecurity":34.8837209302,"dataset_city_name":"malambo"},{"city":"Monter\u00eda","lat":8.76,"lng":-75.8856,"admin_name":"C\u00f3rdoba","government_assistance":78.9473684211,"cari_insecurity":58.0459770115,"dataset_city_name":"monteria"},{"city":"Pailitas","lat":8.9597,"lng":-73.625,"admin_name":"Cesar","government_assistance":84.0,"cari_insecurity":36.0,"dataset_city_name":"pailitas"},{"city":"Pedraza","lat":10.1886,"lng":-74.9156,"admin_name":"Magdalena","government_assistance":88.8888888889,"cari_insecurity":48.1481481481,"dataset_city_name":"pedraza"},{"city":"R\u00edohacha","lat":11.5442,"lng":-72.9069,"admin_name":"La Guajira","government_assistance":69.298245614,"cari_insecurity":43.5483870968,"dataset_city_name":"riohacha"},{"city":"Sandon\u00e1","lat":1.2847,"lng":-77.4711,"admin_name":"Nari\u00f1o","government_assistance":69.7674418605,"cari_insecurity":41.8604651163,"dataset_city_name":"sandona"},{"city":"Santiago de Tol\u00fa","lat":9.525,"lng":-75.5817,"admin_name":"Sucre","government_assistance":90.4761904762,"cari_insecurity":76.1904761905,"dataset_city_name":"santiago"},{"city":"Sardinata","lat":8.0836,"lng":-72.8003,"admin_name":"Norte de Santander","government_assistance":88.0,"cari_insecurity":52.0,"dataset_city_name":"sardinata"},{"city":"Sincelejo","lat":9.2994,"lng":-75.3958,"admin_name":"Sucre","government_assistance":83.1775700935,"cari_insecurity":66.6666666667,"dataset_city_name":"sincelejo"},{"city":"Sucre","lat":2.0375,"lng":-76.925,"admin_name":"Cauca","government_assistance":94.2857142857,"cari_insecurity":44.4444444444,"dataset_city_name":"sucre"},{"city":"Sucre","lat":8.8114,"lng":-74.7208,"admin_name":"Sucre","government_assistance":94.2857142857,"cari_insecurity":44.4444444444,"dataset_city_name":"sucre"},{"city":"Sucre","lat":5.9183,"lng":-73.7911,"admin_name":"Santander","government_assistance":94.2857142857,"cari_insecurity":44.4444444444,"dataset_city_name":"sucre"},{"city":"Timbiqu\u00ed","lat":2.7719,"lng":-77.665,"admin_name":"Cauca","government_assistance":95.2380952381,"cari_insecurity":71.4285714286,"dataset_city_name":"timbiqui"},{"city":"Turbaco","lat":10.3319,"lng":-75.4142,"admin_name":"Bol\u00edvar","government_assistance":80.0,"cari_insecurity":48.4848484848,"dataset_city_name":"turbaco"}]